"State","Fcilty_nam","Shp_num_an","Shp_centre","Street_add","Locality","Postcode","Phone","Wheelchair","Display_wd","Fcilty_typ_2","Latitude","Longitude","uuid","result","Audio"
"PR","Baby's Planet","Shop 1","Ponce","Urb Industrial san rafael 1762 ponce by pass","Ponce PR","00716-1901","10AM-6PM | 787-842-8514","YES","1.5","http://www.babysplanet.com/index.htm","18.001115","-66.597705","1","10",""
"PR","Baby's Planet","Shop 2","San Juan","1029 F.D. Roosevelt Avenue, San Juan","PR ","00920-2903","10AM-6PM | 787-707-0160","YES","1.5","http://www.babysplanet.com/index.htm","18.415459","-66.081239","2","10",""
"NY","GIGGLE","Shop 1","Upper east side","1033 Lexington Avenue (at 74th Street)","New York, NY","10021","10:00AM-7:00AM Monday to Saturday,11:00AM-6:00PM Sunday | 212.249.4249","YES","1.5","www.giggle.com","40.771987","-73.960976","3","10",""
"NY","GIGGLE","Shop 2","Upper west side","352 Amsterdam Avenue(between 76th & 77th Street)","New York, NY","10024","10:00AM-7:00AM Monday to Saturday,11:00AM-6:00PM Sunday | 212.362.8680","YES","1.5","www.giggle.com","40.781967","-73.979621","4","10",""
"NY","GIGGLE","Shop 3","SOHO","451 West Broadway","New York, NY","10012","10:00AM-7:00AM Monday to Saturday,11:00AM-6:00PM Sunday | 212.334.5817","YES","1.5","www.giggle.com","40.726324","-74.000227","5","10",""
"SF","GIGGLE","Shop 4","Marina district","2110 Chestnut Street  (between Steiner & Pierce)","San Francisco, CA","94123","10:00AM-7:00AM Monday to Saturday,11:00AM-6:00PM Sunday | 415.440.9034","YES","1.5","www.giggle.com","37.800862","-122.438222","6","10",""
"CA","GIGGLE","Shop 5","Mid-City district","2212 Wilshire Boulevard","Santa Monica, CA","90403","10:00AM-7:00AM Monday to Saturday,11:00AM-6:00PM Sunday | 424.268.4539","YES","1.5","www.giggle.com","34.033093","-118.480961","7","10",""
"TX","GIGGLE","Shop 6","Southhampton","2438 Rice Boulevard","Houston, TX","77005","10:00AM-7:00AM Monday to Saturday,11:00AM-6:00PM Sunday | 713.807.7300","YES","1.5","www.giggle.com","29.717583","-95.416544","8","10",""